[
    {
        "id": 7,
        "image_url": "/magnetImages/_IMG_3508.JPG",
        "lat": 31.63398,
        "lng": 74.872261,
        "owner": "Yoshinori",
        "hunter": "Yoshinori",
        "comment": "Golden Temple",
        "city": "Amritsar",
        "country": "India",
        "area": "South Asia",
        "handmade": false
    },
    {
        "id": 4,
        "image_url": "/magnetImages/_IMG_3482.JPG",
        "lat": 34.81107709457434,
        "lng": 135.5296870237863,
        "owner": "Yoshinori",
        "hunter": "Yoshinori",
        "comment": "Expo Park, Osaka",
        "city": "Osaka",
        "country": "Japan",
        "area": "East Asia",
        "handmade": false
    },
    {
        "id": 11,
        "image_url": "/magnetImages/_IMG_3480.JPG",
        "lat": 47.608013,
        "lng": -122.335167,
        "owner": "Yoshinori",
        "hunter": "Yoshinori",
        "comment": "Seattle",
        "city": "Seattle",
        "country": "US",
        "area": "North America",
        "handmade": false
    },
    {
        "id": 5,
        "image_url": "/magnetImages/_IMG_3484.JPG",
        "lat": -8.409518,
        "lng": 115.188919,
        "owner": "Yoshinori",
        "hunter": "Yoshinori",
        "comment": "Bali",
        "city": "Bali",
        "country": "Indonesia",
        "area": "South East Asia",
        "handmade": false
    },
    {
        "id": 8,
        "image_url": "/magnetImages/_IMG_3504.JPG",
        "lat": 10.762622,
        "lng": 106.660172,
        "owner": "Yoshinori",
        "hunter": "Yoshinori",
        "comment": "Ho Chi Minh",
        "city": "Ho Chi Minh",
        "country": "Vietnam",
        "area": "South East Asia",
        "handmade": false
    },
    {
        "id": 6,
        "image_url": "/magnetImages/_IMG_3509.JPG",
        "lat": 25.691688503701073,
        "lng": 32.63886696356614,
        "owner": "Yoshinori",
        "hunter": "Yoshinori",
        "comment": "Luxor",
        "city": "Luxor",
        "country": "Egypt",
        "area": "Middle East",
        "handmade": false
    },
    {
        "id": 10,
        "image_url": "/magnetImages/_IMG_3488.JPG",
        "lat": 21.452423916467062,
        "lng": -157.8285200660759,
        "owner": "Yoshinori",
        "hunter": "Naoko",
        "comment": "Honolulu",
        "city": "Honolulu",
        "country": "US",
        "area": "North America",
        "handmade": false
    },
    {
        "id": 1,
        "image_url": "/magnetImages/_IMG_3483.JPG",
        "lat": 18.001593,
        "lng": -87.943283,
        "owner": "Haruka",
        "hunter": "Yoshinori",
        "comment": "Caye Caulker",
        "city": "Caye Caulker",
        "country": "Belize",
        "area": "Central America",
        "handmade": true
    },
    {
        "id": 9,
        "image_url": "/magnetImages/_IMG_3495.JPG",
        "lat": -7.155695196716455,
        "lng": -78.5165626040126,
        "owner": "Yoshinori",
        "hunter": "Yoshinori",
        "comment": "Cajamarca",
        "city": "Cajamarca",
        "country": "Peru",
        "area": "South America",
        "handmade": false
    },
    {
        "id": 3,
        "image_url": "/magnetImages/_IMG_3485.JPG",
        "lat": 50.716667,
        "lng": -3.533333,
        "owner": "Yoshinori",
        "hunter": "Yoshinori",
        "comment": "Exeter",
        "city": "Exeter",
        "country": "UK",
        "area": "Europe",
        "handmade": false
    },
    {
        "id": 2,
        "image_url": "/magnetImages/_IMG_3486.JPG",
        "lat": 41.034283,
        "lng": 28.680119,
        "owner": "Yoshinori",
        "hunter": "Yoshinori",
        "comment": "Istanbul",
        "city": "Istanbul",
        "country": "Turkey",
        "area": "Middle East",
        "handmade": true
    }
]